{"meta": {"code": 200, "requestId": "5bf577a89fb6b752e41270a2"}, "response": {"suggestedFilters": {"header": "Tap to show:", "filters": [{"name": "Open now", "key": "openNow"}]}, "headerLocation": "Paris", "headerFullLocation": "Paris", "headerLocationGranularity": "city", "query": "restaurant", "totalResults": 249, "suggestedBounds": {"ne": {"lat": 48.92861017200007, "lng": 2.46072650635942}, "sw": {"lat": 48.784610027999925, "lng": 2.2422718936405803}}, "groups": [{"type": "Recommended Places", "name": "recommended", "items": [{"reasons": {"count": 0, "items": [{"summary": "This spot is popular", "type": "general", "reasonName": "globalInteractionReason"}]}, "venue": {"id": "512534ece4b03a94f9a50313", "name": "Comptoir Gourmet", "location": {"address": "51 rue du Temple", "crossStreet": "Rue des Blancs-Manteaux", "lat": 48.85993579774543, "lng": 2.3545213337868, "labeledLatLngs": [{"label": "display", "lat": 48.85993579774543, "lng": 2.3545213337868}], "distance": 431, "postalCode": "75004", "cc": "FR", "city": "Paris", "state": "\u00cele-de-France", "country": "France", "formattedAddress": ["51 rue du Temple (Rue des Blancs-Manteaux)", "75004 Paris", "France"]}, "categories": [{"id": "4bf58dd8d48988d1c4941735", "name": "Restaurant", "pluralName": "Restaurants", "shortName": "Restaurant", "icon": {"prefix": "https://ss3.4sqi.net/img/categories_v2/food/default_", "suffix": ".png"}, "primary": true}], "photos": {"count": 0, "groups": []}, "venuePage": {"id": "49532269"}}, "referralId": "e-0-512534ece4b03a94f9a50313-0"}, {"reasons": {"count": 0, "items": [{"summary": "This spot is popular", "type": "general", "reasonName": "globalInteractionReason"}]}, "venue": {"id": "4b27effef964a5209a8c24e3", "name": "Au Vieux Comptoir", "location": {"address": "17 rue des Lavandi\u00e8res Sainte-Opportune", "crossStreet": "Rue de Rivoli", "lat": 48.85889313897845, "lng": 2.3461287908631747, "labeledLatLngs": [{"label": "display", "lat": 48.85889313897845, "lng": 2.3461287908631747}], "distance": 468, "postalCode": "75001", "cc": "FR", "city": "Paris", "state": "\u00cele-de-France", "country": "France", "formattedAddress": ["17 rue des Lavandi\u00e8res Sainte-Opportune (Rue de Rivoli)", "75001 Paris", "France"]}, "categories": [{"id": "4bf58dd8d48988d10c941735", "name": "French Restaurant", "pluralName": "French Restaurants", "shortName": "French", "icon": {"prefix": "https://ss3.4sqi.net/img/categories_v2/food/french_", "suffix": ".png"}, "primary": true}], "photos": {"count": 0, "groups": []}}, "referralId": "e-0-4b27effef964a5209a8c24e3-1"}, {"reasons": {"count": 0, "items": [{"summary": "This spot is popular", "type": "general", "reasonName": "globalInteractionReason"}]}, "venue": {"id": "5293ae7d11d2fba382d9f652", "name": "Benedict", "location": {"address": "19 rue Sainte-Croix-de-la-Bretonnerie", "lat": 48.85820815365001, "lng": 2.3560811411196494, "labeledLatLngs": [{"label": "display", "lat": 48.85820815365001, "lng": 2.3560811411196494}], "distance": 379, "postalCode": "75004", "cc": "FR", "city": "Paris", "state": "\u00cele-de-France", "country": "France", "formattedAddress": ["19 rue Sainte-Croix-de-la-Bretonnerie", "75004 Paris", "France"]}, "categories": [{"id": "4bf58dd8d48988d10c941735", "name": "French Restaurant", "pluralName": "French Restaurants", "shortName": "French", "icon": {"prefix": "https://ss3.4sqi.net/img/categories_v2/food/french_", "suffix": ".png"}, "primary": true}], "photos": {"count": 0, "groups": []}}, "referralId": "e-0-5293ae7d11d2fba382d9f652-2"}, {"reasons": {"count": 0, "items": [{"summary": "This spot is popular", "type": "general", "reasonName": "globalInteractionReason"}]}, "venue": {"id": "4db07d97fa8ca4b3e9e2caca", "name": "Pamela Popo", "location": {"address": "15 rue Francois Miron", "lat": 48.85574916092363, "lng": 2.3569190697806426, "labeledLatLngs": [{"label": "display", "lat": 48.85574916092363, "lng": 2.3569190697806426}], "distance": 408, "postalCode": "75004", "cc": "FR", "city": "Paris", "state": "\u00cele-de-France", "country": "France", "formattedAddress": ["15 rue Francois Miron", "75004 Paris", "France"]}, "categories": [{"id": "4bf58dd8d48988d10c941735", "name": "French Restaurant", "pluralName": "French Restaurants", "shortName": "French", "icon": {"prefix": "https://ss3.4sqi.net/img/categories_v2/food/french_", "suffix": ".png"}, "primary": true}], "photos": {"count": 0, "groups": []}}, "referralId": "e-0-4db07d97fa8ca4b3e9e2caca-3"}, {"reasons": {"count": 0, "items": [{"summary": "This spot is popular", "type": "general", "reasonName": "globalInteractionReason"}]}, "venue": {"id": "5549fa0b498e749486cadcd7", "name": "Kraft", "location": {"address": "15 rue des Archives", "lat": 48.85832391270991, "lng": 2.3549138742964715, "labeledLatLngs": [{"label": "display", "lat": 48.85832391270991, "lng": 2.3549138742964715}], "distance": 314, "postalCode": "75004", "cc": "FR", "city": "Paris", "state": "\u00cele-de-France", "country": "France", "formattedAddress": ["15 rue des Archives", "75004 Paris", "France"]}, "categories": [{"id": "4bf58dd8d48988d16f941735", "name": "Hot Dog Joint", "pluralName": "Hot Dog Joints", "shortName": "Hot Dogs", "icon": {"prefix": "https://ss3.4sqi.net/img/categories_v2/food/hotdog_", "suffix": ".png"}, "primary": true}], "photos": {"count": 0, "groups": []}}, "referralId": "e-0-5549fa0b498e749486cadcd7-4"}, {"reasons": {"count": 0, "items": [{"summary": "This spot is popular", "type": "general", "reasonName": "globalInteractionReason"}]}, "venue": {"id": "526d201d11d2d42b81af4ee6", "name": "Miznon", "location": {"address": "22 rue des Ecouffes", "lat": 48.857200621424404, "lng": 2.3589573284780676, "labeledLatLngs": [{"label": "display", "lat": 48.857200621424404, "lng": 2.3589573284780676}], "distance": 550, "postalCode": "75004", "cc": "FR", "city": "Paris", "state": "\u00cele-de-France", "country": "France", "formattedAddress": ["22 rue des Ecouffes", "75004 Paris", "France"]}, "categories": [{"id": "56aa371be4b08b9a8d573529", "name": "Israeli Restaurant", "pluralName": "Israeli Restaurants", "shortName": "Israeli", "icon": {"prefix": "https://ss3.4sqi.net/img/categories_v2/food/falafel_", "suffix": ".png"}, "primary": true}], "photos": {"count": 0, "groups": []}}, "referralId": "e-0-526d201d11d2d42b81af4ee6-5"}, {"reasons": {"count": 0, "items": [{"summary": "This spot is popular", "type": "general", "reasonName": "globalInteractionReason"}]}, "venue": {"id": "4e0757e96284d9ee92d4b1ca", "name": "Comme \u00e0 Lisbonne", "location": {"address": "37 rue du Roi de Sicile", "crossStreet": "Rue de Bourg Tibourg & Rue Vieille du Temple", "lat": 48.856767485058, "lng": 2.356461882401648, "labeledLatLngs": [{"label": "display", "lat": 48.856767485058, "lng": 2.356461882401648}], "distance": 363, "postalCode": "75004", "cc": "FR", "city": "Paris", "state": "\u00cele-de-France", "country": "France", "formattedAddress": ["37 rue du Roi de Sicile (Rue de Bourg Tibourg & Rue Vieille du Temple)", "75004 Paris", "France"]}, "categories": [{"id": "4bf58dd8d48988d16d941735", "name": "Caf\u00e9", "pluralName": "Caf\u00e9s", "shortName": "Caf\u00e9", "icon": {"prefix": "https://ss3.4sqi.net/img/categories_v2/food/cafe_", "suffix": ".png"}, "primary": true}], "photos": {"count": 0, "groups": []}}, "referralId": "e-0-4e0757e96284d9ee92d4b1ca-6"}, {"reasons": {"count": 0, "items": [{"summary": "This spot is popular", "type": "general", "reasonName": "globalInteractionReason"}]}, "venue": {"id": "4b867a97f964a520e48b31e3", "name": "L'As du Fallafel", "location": {"address": "34 rue des Rosiers", "crossStreet": "Rue des Ecouffes", "lat": 48.857381354315706, "lng": 2.359014657852358, "labeledLatLngs": [{"label": "display", "lat": 48.857381354315706, "lng": 2.359014657852358}], "distance": 557, "postalCode": "75004", "cc": "FR", "city": "Paris", "state": "\u00cele-de-France", "country": "France", "formattedAddress": ["34 rue des Rosiers (Rue des Ecouffes)", "75004 Paris", "France"]}, "categories": [{"id": "4bf58dd8d48988d10b941735", "name": "Falafel Restaurant", "pluralName": "Falafel Restaurants", "shortName": "Falafel", "icon": {"prefix": "https://ss3.4sqi.net/img/categories_v2/food/falafel_", "suffix": ".png"}, "primary": true}], "photos": {"count": 0, "groups": []}}, "referralId": "e-0-4b867a97f964a520e48b31e3-7"}, {"reasons": {"count": 0, "items": [{"summary": "This spot is popular", "type": "general", "reasonName": "globalInteractionReason"}]}, "venue": {"id": "578a2e9f498e1129b45bb0db", "name": "Shiso Burger", "location": {"address": "21 quai Saint-Michel", "lat": 48.853396, "lng": 2.345545, "labeledLatLngs": [{"label": "display", "lat": 48.853396, "lng": 2.345545}], "distance": 564, "postalCode": "75005", "cc": "FR", "city": "Paris", "state": "\u00cele-de-France", "country": "France", "formattedAddress": ["21 quai Saint-Michel", "75005 Paris", "France"]}, "categories": [{"id": "4bf58dd8d48988d16c941735", "name": "Burger Joint", "pluralName": "Burger Joints", "shortName": "Burgers", "icon": {"prefix": "https://ss3.4sqi.net/img/categories_v2/food/burger_", "suffix": ".png"}, "primary": true}], "photos": {"count": 0, "groups": []}}, "referralId": "e-0-578a2e9f498e1129b45bb0db-8"}, {"reasons": {"count": 0, "items": [{"summary": "This spot is popular", "type": "general", "reasonName": "globalInteractionReason"}]}, "venue": {"id": "4b4b6fe4f964a520a19b26e3", "name": "Ze Kitchen Galerie", "location": {"address": "4 rue des Grands Augustins", "lat": 48.855168002657386, "lng": 2.3413241998760412, "labeledLatLngs": [{"label": "display", "lat": 48.855168002657386, "lng": 2.3413241998760412}], "distance": 762, "postalCode": "75006", "cc": "FR", "city": "Paris", "state": "\u00cele-de-France", "country": "France", "formattedAddress": ["4 rue des Grands Augustins", "75006 Paris", "France"]}, "categories": [{"id": "4bf58dd8d48988d1c4941735", "name": "Restaurant", "pluralName": "Restaurants", "shortName": "Restaurant", "icon": {"prefix": "https://ss3.4sqi.net/img/categories_v2/food/default_", "suffix": ".png"}, "primary": true}], "photos": {"count": 0, "groups": []}}, "referralId": "e-0-4b4b6fe4f964a520a19b26e3-9"}, {"reasons": {"count": 0, "items": [{"summary": "This spot is popular", "type": "general", "reasonName": "globalInteractionReason"}]}, "venue": {"id": "4e58cf2bd164da2b275956ff", "name": "Boulangerie La Parisienne", "location": {"address": "52 boulevard Saint-Germain", "lat": 48.84994932868986, "lng": 2.3497599363327026, "labeledLatLngs": [{"label": "display", "lat": 48.84994932868986, "lng": 2.3497599363327026}], "distance": 752, "postalCode": "75005", "cc": "FR", "city": "Paris", "state": "\u00cele-de-France", "country": "France", "formattedAddress": ["52 boulevard Saint-Germain", "75005 Paris", "France"]}, "categories": [{"id": "4bf58dd8d48988d16a941735", "name": "Bakery", "pluralName": "Bakeries", "shortName": "Bakery", "icon": {"prefix": "https://ss3.4sqi.net/img/categories_v2/food/bakery_", "suffix": ".png"}, "primary": true}], "photos": {"count": 0, "groups": []}}, "referralId": "e-0-4e58cf2bd164da2b275956ff-10"}, {"reasons": {"count": 0, "items": [{"summary": "This spot is popular", "type": "general", "reasonName": "globalInteractionReason"}]}, "venue": {"id": "4d07738e347da1cd0c093b8f", "name": "Sola", "location": {"address": "12 rue de l'H\u00f4tel Colbert", "lat": 48.851569311075956, "lng": 2.3483908623771272, "labeledLatLngs": [{"label": "display", "lat": 48.851569311075956, "lng": 2.3483908623771272}], "distance": 605, "postalCode": "75005", "cc": "FR", "city": "Paris", "state": "\u00cele-de-France", "country": "France", "formattedAddress": ["12 rue de l'H\u00f4tel Colbert", "75005 Paris", "France"]}, "categories": [{"id": "4bf58dd8d48988d111941735", "name": "Japanese Restaurant", "pluralName": "Japanese Restaurants", "shortName": "Japanese", "icon": {"prefix": "https://ss3.4sqi.net/img/categories_v2/food/japanese_", "suffix": ".png"}, "primary": true}], "photos": {"count": 0, "groups": []}}, "referralId": "e-0-4d07738e347da1cd0c093b8f-11"}, {"reasons": {"count": 0, "items": [{"summary": "This spot is popular", "type": "general", "reasonName": "globalInteractionReason"}]}, "venue": {"id": "560d03b5498eaea729b6bf10", "name": "Trois Fois plus de Piment", "location": {"address": "Rue Saint-Martin 184", "crossStreet": "Rue aux Ours", "lat": 48.8628, "lng": 2.35237, "labeledLatLngs": [{"label": "display", "lat": 48.8628, "lng": 2.35237}], "distance": 691, "postalCode": "75003", "cc": "FR", "city": "Paris", "state": "\u00cele-de-France", "country": "France", "formattedAddress": ["Rue Saint-Martin 184 (Rue aux Ours)", "75003 Paris", "France"]}, "categories": [{"id": "52af3b773cf9994f4e043c03", "name": "Szechuan Restaurant", "pluralName": "Szechuan Restaurants", "shortName": "Szechuan", "icon": {"prefix": "https://ss3.4sqi.net/img/categories_v2/food/asian_", "suffix": ".png"}, "primary": true}], "photos": {"count": 0, "groups": []}, "venuePage": {"id": "194002375"}}, "referralId": "e-0-560d03b5498eaea729b6bf10-12"}, {"reasons": {"count": 0, "items": [{"summary": "This spot is popular", "type": "general", "reasonName": "globalInteractionReason"}]}, "venue": {"id": "56488723498ee052e7809fee", "name": "Le Ruisseau Burger Joint", "location": {"address": "22 rue Rambuteau", "lat": 48.86089347076943, "lng": 2.354413496784841, "labeledLatLngs": [{"label": "display", "lat": 48.86089347076943, "lng": 2.354413496784841}], "distance": 522, "postalCode": "75003", "cc": "FR", "city": "Paris", "state": "\u00cele-de-France", "country": "France", "formattedAddress": ["22 rue Rambuteau", "75003 Paris", "France"]}, "categories": [{"id": "4bf58dd8d48988d16c941735", "name": "Burger Joint", "pluralName": "Burger Joints", "shortName": "Burgers", "icon": {"prefix": "https://ss3.4sqi.net/img/categories_v2/food/burger_", "suffix": ".png"}, "primary": true}], "photos": {"count": 0, "groups": []}}, "referralId": "e-0-56488723498ee052e7809fee-13"}, {"reasons": {"count": 0, "items": [{"summary": "This spot is popular", "type": "general", "reasonName": "globalInteractionReason"}]}, "venue": {"id": "4c62b9befa7bc92813bd0e27", "name": "Murciano Boulangerie et Patisserie", "location": {"address": "16 rue des Rosiers", "lat": 48.85698355286805, "lng": 2.3597894794820027, "labeledLatLngs": [{"label": "display", "lat": 48.85698355286805, "lng": 2.3597894794820027}], "distance": 608, "postalCode": "75004", "cc": "FR", "city": "Paris", "state": "\u00cele-de-France", "country": "France", "formattedAddress": ["16 rue des Rosiers", "75004 Paris", "France"]}, "categories": [{"id": "4bf58dd8d48988d16a941735", "name": "Bakery", "pluralName": "Bakeries", "shortName": "Bakery", "icon": {"prefix": "https://ss3.4sqi.net/img/categories_v2/food/bakery_", "suffix": ".png"}, "primary": true}], "photos": {"count": 0, "groups": []}}, "referralId": "e-0-4c62b9befa7bc92813bd0e27-14"}, {"reasons": {"count": 0, "items": [{"summary": "This spot is popular", "type": "general", "reasonName": "globalInteractionReason"}]}, "venue": {"id": "4b7eca75f964a520b4ff2fe3", "name": "Schwartz's Deli", "location": {"address": "16 rue des Ecouffes", "lat": 48.85697506468535, "lng": 2.3588300680322063, "labeledLatLngs": [{"label": "display", "lat": 48.85697506468535, "lng": 2.3588300680322063}], "distance": 538, "postalCode": "75004", "cc": "FR", "city": "Paris", "state": "\u00cele-de-France", "country": "France", "formattedAddress": ["16 rue des Ecouffes", "75004 Paris", "France"]}, "categories": [{"id": "4bf58dd8d48988d16c941735", "name": "Burger Joint", "pluralName": "Burger Joints", "shortName": "Burgers", "icon": {"prefix": "https://ss3.4sqi.net/img/categories_v2/food/burger_", "suffix": ".png"}, "primary": true}], "photos": {"count": 0, "groups": []}}, "referralId": "e-0-4b7eca75f964a520b4ff2fe3-15"}, {"reasons": {"count": 0, "items": [{"summary": "This spot is popular", "type": "general", "reasonName": "globalInteractionReason"}]}, "venue": {"id": "554548c8498e731178ebf08a", "name": "Sourire Tapas Fran\u00e7aises", "location": {"address": "27 rue Galande", "lat": 48.851466920283286, "lng": 2.347902199894751, "labeledLatLngs": [{"label": "display", "lat": 48.851466920283286, "lng": 2.347902199894751}], "distance": 630, "postalCode": "75005", "cc": "FR", "city": "Paris", "state": "\u00cele-de-France", "country": "France", "formattedAddress": ["27 rue Galande", "75005 Paris", "France"]}, "categories": [{"id": "4bf58dd8d48988d10c941735", "name": "French Restaurant", "pluralName": "French Restaurants", "shortName": "French", "icon": {"prefix": "https://ss3.4sqi.net/img/categories_v2/food/french_", "suffix": ".png"}, "primary": true}], "photos": {"count": 0, "groups": []}}, "referralId": "e-0-554548c8498e731178ebf08a-16"}, {"reasons": {"count": 0, "items": [{"summary": "This spot is popular", "type": "general", "reasonName": "globalInteractionReason"}]}, "venue": {"id": "4adcda11f964a520da3521e3", "name": "La Tour d'Argent", "location": {"address": "17 quai de la Tournelle", "lat": 48.84983511642732, "lng": 2.3549794422372066, "labeledLatLngs": [{"label": "display", "lat": 48.84983511642732, "lng": 2.3549794422372066}], "distance": 796, "postalCode": "75005", "cc": "FR", "city": "Paris", "state": "\u00cele-de-France", "country": "France", "formattedAddress": ["17 quai de la Tournelle", "75005 Paris", "France"]}, "categories": [{"id": "4bf58dd8d48988d10c941735", "name": "French Restaurant", "pluralName": "French Restaurants", "shortName": "French", "icon": {"prefix": "https://ss3.4sqi.net/img/categories_v2/food/french_", "suffix": ".png"}, "primary": true}], "photos": {"count": 0, "groups": []}}, "referralId": "e-0-4adcda11f964a520da3521e3-17"}, {"reasons": {"count": 0, "items": [{"summary": "This spot is popular", "type": "general", "reasonName": "globalInteractionReason"}]}, "venue": {"id": "508ad773e4b01ceeb2bab8d4", "name": "Comme chai Toi", "location": {"address": "11 quai de Montebello", "lat": 48.85174869628851, "lng": 2.349318712949753, "labeledLatLngs": [{"label": "display", "lat": 48.85174869628851, "lng": 2.349318712949753}], "distance": 564, "postalCode": "75005", "cc": "FR", "neighborhood": "Sorbonne", "city": "Paris", "state": "\u00cele-de-France", "country": "France", "formattedAddress": ["11 quai de Montebello", "75005 Paris", "France"]}, "categories": [{"id": "4bf58dd8d48988d10c941735", "name": "French Restaurant", "pluralName": "French Restaurants", "shortName": "French", "icon": {"prefix": "https://ss3.4sqi.net/img/categories_v2/food/french_", "suffix": ".png"}, "primary": true}], "photos": {"count": 0, "groups": []}}, "referralId": "e-0-508ad773e4b01ceeb2bab8d4-18"}, {"reasons": {"count": 0, "items": [{"summary": "This spot is popular", "type": "general", "reasonName": "globalInteractionReason"}]}, "venue": {"id": "57222bc7498ea8de6c6d8c24", "name": "Caf\u00e9 Belleville", "location": {"address": "L'Exception Concept Store", "crossStreet": "24 rue Berger", "lat": 48.861209781831484, "lng": 2.3468057763265, "labeledLatLngs": [{"label": "display", "lat": 48.861209781831484, "lng": 2.3468057763265}], "distance": 616, "postalCode": "75001", "cc": "FR", "city": "Paris", "state": "\u00cele-de-France", "country": "France", "formattedAddress": ["L'Exception Concept Store (24 rue Berger)", "75001 Paris", "France"]}, "categories": [{"id": "4bf58dd8d48988d16d941735", "name": "Caf\u00e9", "pluralName": "Caf\u00e9s", "shortName": "Caf\u00e9", "icon": {"prefix": "https://ss3.4sqi.net/img/categories_v2/food/cafe_", "suffix": ".png"}, "primary": true}], "photos": {"count": 0, "groups": []}}, "referralId": "e-0-57222bc7498ea8de6c6d8c24-19"}, {"reasons": {"count": 0, "items": [{"summary": "This spot is popular", "type": "general", "reasonName": "globalInteractionReason"}]}, "venue": {"id": "5342fcff498e1d32177cc21b", "name": "Restaurant AT", "location": {"address": "4 rue Cardinal Lemoine", "lat": 48.84962786526761, "lng": 2.354653592824174, "labeledLatLngs": [{"label": "display", "lat": 48.84962786526761, "lng": 2.354653592824174}], "distance": 810, "postalCode": "75005", "cc": "FR", "city": "Paris", "state": "\u00cele-de-France", "country": "France", "formattedAddress": ["4 rue Cardinal Lemoine", "75005 Paris", "France"]}, "categories": [{"id": "4bf58dd8d48988d111941735", "name": "Japanese Restaurant", "pluralName": "Japanese Restaurants", "shortName": "Japanese", "icon": {"prefix": "https://ss3.4sqi.net/img/categories_v2/food/japanese_", "suffix": ".png"}, "primary": true}], "photos": {"count": 0, "groups": []}}, "referralId": "e-0-5342fcff498e1d32177cc21b-20"}, {"reasons": {"count": 0, "items": [{"summary": "This spot is popular", "type": "general", "reasonName": "globalInteractionReason"}]}, "venue": {"id": "505dad02e4b008a518fec515", "name": "Strada Caf\u00e9", "location": {"address": "94 rue du Temple", "lat": 48.86230315882065, "lng": 2.3573198598308016, "labeledLatLngs": [{"label": "display", "lat": 48.86230315882065, "lng": 2.3573198598308016}], "distance": 763, "postalCode": "75003", "cc": "FR", "city": "Paris", "state": "\u00cele-de-France", "country": "France", "formattedAddress": ["94 rue du Temple", "75003 Paris", "France"]}, "categories": [{"id": "4bf58dd8d48988d16d941735", "name": "Caf\u00e9", "pluralName": "Caf\u00e9s", "shortName": "Caf\u00e9", "icon": {"prefix": "https://ss3.4sqi.net/img/categories_v2/food/cafe_", "suffix": ".png"}, "primary": true}], "photos": {"count": 0, "groups": []}}, "referralId": "e-0-505dad02e4b008a518fec515-21"}, {"reasons": {"count": 0, "items": [{"summary": "This spot is popular", "type": "general", "reasonName": "globalInteractionReason"}]}, "venue": {"id": "4d974096a2c654814aa6d353", "name": "Mmmozza", "location": {"address": "57 rue de Bretagne", "lat": 48.86403341736561, "lng": 2.360807525409116, "labeledLatLngs": [{"label": "display", "lat": 48.86403341736561, "lng": 2.360807525409116}], "distance": 1071, "postalCode": "75003", "cc": "FR", "city": "Paris", "state": "\u00cele-de-France", "country": "France", "formattedAddress": ["57 rue de Bretagne", "75003 Paris", "France"]}, "categories": [{"id": "4bf58dd8d48988d1c5941735", "name": "Sandwich Place", "pluralName": "Sandwich Places", "shortName": "Sandwiches", "icon": {"prefix": "https://ss3.4sqi.net/img/categories_v2/food/deli_", "suffix": ".png"}, "primary": true}], "photos": {"count": 0, "groups": []}}, "referralId": "e-0-4d974096a2c654814aa6d353-22"}, {"reasons": {"count": 0, "items": [{"summary": "This spot is popular", "type": "general", "reasonName": "globalInteractionReason"}]}, "venue": {"id": "4b391111f964a5206c5525e3", "name": "Le Derri\u00e8re", "location": {"address": "69 rue des Gravilliers", "lat": 48.8644695009521, "lng": 2.3541775345802307, "labeledLatLngs": [{"label": "display", "lat": 48.8644695009521, "lng": 2.3541775345802307}], "distance": 896, "postalCode": "75003", "cc": "FR", "city": "Paris", "state": "\u00cele-de-France", "country": "France", "formattedAddress": ["69 rue des Gravilliers", "75003 Paris", "France"]}, "categories": [{"id": "4bf58dd8d48988d10c941735", "name": "French Restaurant", "pluralName": "French Restaurants", "shortName": "French", "icon": {"prefix": "https://ss3.4sqi.net/img/categories_v2/food/french_", "suffix": ".png"}, "primary": true}], "photos": {"count": 0, "groups": []}}, "referralId": "e-0-4b391111f964a5206c5525e3-23"}, {"reasons": {"count": 0, "items": [{"summary": "This spot is popular", "type": "general", "reasonName": "globalInteractionReason"}]}, "venue": {"id": "4b003268f964a520673b22e3", "name": "Breizh Caf\u00e9", "location": {"address": "109 rue Vieille du Temple", "lat": 48.86063339425433, "lng": 2.3618003726005554, "labeledLatLngs": [{"label": "display", "lat": 48.86063339425433, "lng": 2.3618003726005554}], "distance": 877, "postalCode": "75003", "cc": "FR", "neighborhood": "Temple", "city": "Paris", "state": "\u00cele-de-France", "country": "France", "formattedAddress": ["109 rue Vieille du Temple", "75003 Paris", "France"]}, "categories": [{"id": "52e81612bcbc57f1066b79f2", "name": "Creperie", "pluralName": "Creperies", "shortName": "Creperie", "icon": {"prefix": "https://ss3.4sqi.net/img/categories_v2/food/creperie_", "suffix": ".png"}, "primary": true}], "photos": {"count": 0, "groups": []}}, "referralId": "e-0-4b003268f964a520673b22e3-24"}, {"reasons": {"count": 0, "items": [{"summary": "This spot is popular", "type": "general", "reasonName": "globalInteractionReason"}]}, "venue": {"id": "4bb39d3c42959c743332222c", "name": "Chez Camille", "location": {"address": "24 rue des Francs Bourgeois", "lat": 48.85778184433875, "lng": 2.360754789853313, "labeledLatLngs": [{"label": "display", "lat": 48.85778184433875, "lng": 2.360754789853313}], "distance": 690, "postalCode": "75003", "cc": "FR", "city": "Paris", "state": "\u00cele-de-France", "country": "France", "formattedAddress": ["24 rue des Francs Bourgeois", "75003 Paris", "France"]}, "categories": [{"id": "4bf58dd8d48988d10c941735", "name": "French Restaurant", "pluralName": "French Restaurants", "shortName": "French", "icon": {"prefix": "https://ss3.4sqi.net/img/categories_v2/food/french_", "suffix": ".png"}, "primary": true}], "photos": {"count": 0, "groups": []}}, "referralId": "e-0-4bb39d3c42959c743332222c-25"}, {"reasons": {"count": 0, "items": [{"summary": "This spot is popular", "type": "general", "reasonName": "globalInteractionReason"}]}, "venue": {"id": "4e9d62517bebee1c7e6362eb", "name": "Caf\u00e9 Su\u00e9dois", "location": {"address": "11 rue Payenne", "crossStreet": "Institut Su\u00e9dois", "lat": 48.85808142896356, "lng": 2.36235789389241, "labeledLatLngs": [{"label": "display", "lat": 48.85808142896356, "lng": 2.36235789389241}], "distance": 811, "postalCode": "75004", "cc": "FR", "city": "Paris", "state": "\u00cele-de-France", "country": "France", "formattedAddress": ["11 rue Payenne (Institut Su\u00e9dois)", "75004 Paris", "France"]}, "categories": [{"id": "4bf58dd8d48988d1c6941735", "name": "Scandinavian Restaurant", "pluralName": "Scandinavian Restaurants", "shortName": "Scandinavian", "icon": {"prefix": "https://ss3.4sqi.net/img/categories_v2/food/scandinavian_", "suffix": ".png"}, "primary": true}], "photos": {"count": 0, "groups": []}}, "referralId": "e-0-4e9d62517bebee1c7e6362eb-26"}, {"reasons": {"count": 0, "items": [{"summary": "This spot is popular", "type": "general", "reasonName": "globalInteractionReason"}]}, "venue": {"id": "4e1b43ceb61cda006c7db7ed", "name": "La Mangerie", "location": {"address": "7 rue de Jarente", "lat": 48.8557965430479, "lng": 2.362733014737857, "labeledLatLngs": [{"label": "display", "lat": 48.8557965430479, "lng": 2.362733014737857}], "distance": 827, "postalCode": "75004", "cc": "FR", "city": "Paris", "state": "\u00cele-de-France", "country": "France", "formattedAddress": ["7 rue de Jarente", "75004 Paris", "France"]}, "categories": [{"id": "4bf58dd8d48988d1db931735", "name": "Tapas Restaurant", "pluralName": "Tapas Restaurants", "shortName": "Tapas", "icon": {"prefix": "https://ss3.4sqi.net/img/categories_v2/food/tapas_", "suffix": ".png"}, "primary": true}], "photos": {"count": 0, "groups": []}}, "referralId": "e-0-4e1b43ceb61cda006c7db7ed-27"}, {"reasons": {"count": 0, "items": [{"summary": "This spot is popular", "type": "general", "reasonName": "globalInteractionReason"}]}, "venue": {"id": "4adcda08f964a520963321e3", "name": "Chez le Libanais", "location": {"address": "35 rue Saint-Andr\u00e9 des Arts", "lat": 48.85328503500076, "lng": 2.3416730761528015, "labeledLatLngs": [{"label": "display", "lat": 48.85328503500076, "lng": 2.3416730761528015}], "distance": 809, "postalCode": "75006", "cc": "FR", "city": "Paris", "state": "\u00cele-de-France", "country": "France", "formattedAddress": ["35 rue Saint-Andr\u00e9 des Arts", "75006 Paris", "France"]}, "categories": [{"id": "58daa1558bbb0b01f18ec1cd", "name": "Lebanese Restaurant", "pluralName": "Lebanese Restaurants", "shortName": "Lebanese", "icon": {"prefix": "https://ss3.4sqi.net/img/categories_v2/food/middleeastern_", "suffix": ".png"}, "primary": true}], "photos": {"count": 0, "groups": []}}, "referralId": "e-0-4adcda08f964a520963321e3-28"}, {"reasons": {"count": 0, "items": [{"summary": "This spot is popular", "type": "general", "reasonName": "globalInteractionReason"}]}, "venue": {"id": "4b4b9831f964a5205fa126e3", "name": "Taing Song-Heng", "location": {"address": "3 rue Volta", "lat": 48.86470055655422, "lng": 2.3568883433485377, "labeledLatLngs": [{"label": "display", "lat": 48.86470055655422, "lng": 2.3568883433485377}], "distance": 983, "postalCode": "75003", "cc": "FR", "city": "Paris", "state": "\u00cele-de-France", "country": "France", "formattedAddress": ["3 rue Volta", "75003 Paris", "France"]}, "categories": [{"id": "4bf58dd8d48988d14a941735", "name": "Vietnamese Restaurant", "pluralName": "Vietnamese Restaurants", "shortName": "Vietnamese", "icon": {"prefix": "https://ss3.4sqi.net/img/categories_v2/food/vietnamese_", "suffix": ".png"}, "primary": true}], "photos": {"count": 0, "groups": []}}, "referralId": "e-0-4b4b9831f964a5205fa126e3-29"}, {"reasons": {"count": 0, "items": [{"summary": "This spot is popular", "type": "general", "reasonName": "globalInteractionReason"}]}, "venue": {"id": "526d0c5511d275f7419369d4", "name": "Chez Alain Miam Miam", "location": {"address": "March\u00e9 des Enfants Rouges", "lat": 48.86278066936393, "lng": 2.362063870044378, "labeledLatLngs": [{"label": "display", "lat": 48.86278066936393, "lng": 2.362063870044378}], "distance": 1034, "postalCode": "75003", "cc": "FR", "city": "Paris", "state": "\u00cele-de-France", "country": "France", "formattedAddress": ["March\u00e9 des Enfants Rouges", "75003 Paris", "France"]}, "categories": [{"id": "4bf58dd8d48988d1c5941735", "name": "Sandwich Place", "pluralName": "Sandwich Places", "shortName": "Sandwiches", "icon": {"prefix": "https://ss3.4sqi.net/img/categories_v2/food/deli_", "suffix": ".png"}, "primary": true}], "photos": {"count": 0, "groups": []}}, "referralId": "e-0-526d0c5511d275f7419369d4-30"}, {"reasons": {"count": 0, "items": [{"summary": "This spot is popular", "type": "general", "reasonName": "globalInteractionReason"}]}, "venue": {"id": "583025d07ff1e43c19cd8599", "name": "Biglove Caff\u00e8", "location": {"address": "30 rue Debelleyme", "lat": 48.86206260694734, "lng": 2.363556952325989, "labeledLatLngs": [{"label": "display", "lat": 48.86206260694734, "lng": 2.363556952325989}], "distance": 1071, "postalCode": "75003", "cc": "FR", "city": "Paris", "state": "\u00cele-de-France", "country": "France", "formattedAddress": ["30 rue Debelleyme", "75003 Paris", "France"]}, "categories": [{"id": "4bf58dd8d48988d110941735", "name": "Italian Restaurant", "pluralName": "Italian Restaurants", "shortName": "Italian", "icon": {"prefix": "https://ss3.4sqi.net/img/categories_v2/food/italian_", "suffix": ".png"}, "primary": true}], "photos": {"count": 0, "groups": []}}, "referralId": "e-0-583025d07ff1e43c19cd8599-31"}, {"reasons": {"count": 0, "items": [{"summary": "This spot is popular", "type": "general", "reasonName": "globalInteractionReason"}]}, "venue": {"id": "50d5be47e4b0fb6ff8363c5f", "name": "Bistro du P\u00e9rigord", "location": {"address": "69-73 rue Saint-Jacques", "lat": 48.84988629254856, "lng": 2.345055089074744, "labeledLatLngs": [{"label": "display", "lat": 48.84988629254856, "lng": 2.345055089074744}], "distance": 884, "postalCode": "75005", "cc": "FR", "city": "Paris", "state": "\u00cele-de-France", "country": "France", "formattedAddress": ["69-73 rue Saint-Jacques", "75005 Paris", "France"]}, "categories": [{"id": "4bf58dd8d48988d10c941735", "name": "French Restaurant", "pluralName": "French Restaurants", "shortName": "French", "icon": {"prefix": "https://ss3.4sqi.net/img/categories_v2/food/french_", "suffix": ".png"}, "primary": true}], "photos": {"count": 0, "groups": []}}, "referralId": "e-0-50d5be47e4b0fb6ff8363c5f-32"}, {"reasons": {"count": 0, "items": [{"summary": "This spot is popular", "type": "general", "reasonName": "globalInteractionReason"}]}, "venue": {"id": "5363e5e8498e28fe24376415", "name": "Homies", "location": {"address": "26 rue Beautreillis", "lat": 48.853646341642914, "lng": 2.364399944168886, "labeledLatLngs": [{"label": "display", "lat": 48.853646341642914, "lng": 2.364399944168886}], "distance": 1000, "postalCode": "75004", "cc": "FR", "neighborhood": "Saint Paul", "city": "Paris", "state": "\u00cele-de-France", "country": "France", "formattedAddress": ["26 rue Beautreillis", "75004 Paris", "France"]}, "categories": [{"id": "4bf58dd8d48988d1db931735", "name": "Tapas Restaurant", "pluralName": "Tapas Restaurants", "shortName": "Tapas", "icon": {"prefix": "https://ss3.4sqi.net/img/categories_v2/food/tapas_", "suffix": ".png"}, "primary": true}], "photos": {"count": 0, "groups": []}}, "referralId": "e-0-5363e5e8498e28fe24376415-33"}, {"reasons": {"count": 0, "items": [{"summary": "This spot is popular", "type": "general", "reasonName": "globalInteractionReason"}]}, "venue": {"id": "4b181f71f964a52053cd23e3", "name": "Rice & Fish", "location": {"address": "16 rue Greneta", "lat": 48.865149788345164, "lng": 2.351435201806962, "labeledLatLngs": [{"label": "display", "lat": 48.865149788345164, "lng": 2.351435201806962}], "distance": 950, "postalCode": "75002", "cc": "FR", "city": "Paris", "state": "\u00cele-de-France", "country": "France", "formattedAddress": ["16 rue Greneta", "75002 Paris", "France"]}, "categories": [{"id": "4bf58dd8d48988d1d2941735", "name": "Sushi Restaurant", "pluralName": "Sushi Restaurants", "shortName": "Sushi", "icon": {"prefix": "https://ss3.4sqi.net/img/categories_v2/food/sushi_", "suffix": ".png"}, "primary": true}], "photos": {"count": 0, "groups": []}}, "referralId": "e-0-4b181f71f964a52053cd23e3-34"}, {"reasons": {"count": 0, "items": [{"summary": "This spot is popular", "type": "general", "reasonName": "globalInteractionReason"}]}, "venue": {"id": "542328dc498ecb84a246bd46", "name": "SoMa", "location": {"address": "13 rue de Saintonge", "lat": 48.86151090488514, "lng": 2.3621459089408225, "labeledLatLngs": [{"label": "display", "lat": 48.86151090488514, "lng": 2.3621459089408225}], "distance": 951, "postalCode": "75003", "cc": "FR", "city": "Paris", "state": "\u00cele-de-France", "country": "France", "formattedAddress": ["13 rue de Saintonge", "75003 Paris", "France"]}, "categories": [{"id": "4bf58dd8d48988d111941735", "name": "Japanese Restaurant", "pluralName": "Japanese Restaurants", "shortName": "Japanese", "icon": {"prefix": "https://ss3.4sqi.net/img/categories_v2/food/japanese_", "suffix": ".png"}, "primary": true}], "photos": {"count": 0, "groups": []}}, "referralId": "e-0-542328dc498ecb84a246bd46-35"}, {"reasons": {"count": 0, "items": [{"summary": "This spot is popular", "type": "general", "reasonName": "globalInteractionReason"}]}, "venue": {"id": "4bbf1e2c30c99c74319f5411", "name": "Chez Taeko", "location": {"address": "39 rue de Bretagne", "crossStreet": "March\u00e9 des Enfants rouges", "lat": 48.862733763586455, "lng": 2.362135982749459, "labeledLatLngs": [{"label": "display", "lat": 48.862733763586455, "lng": 2.362135982749459}], "distance": 1035, "postalCode": "75003", "cc": "FR", "city": "Paris", "state": "\u00cele-de-France", "country": "France", "formattedAddress": ["39 rue de Bretagne (March\u00e9 des Enfants rouges)", "75003 Paris", "France"]}, "categories": [{"id": "4bf58dd8d48988d111941735", "name": "Japanese Restaurant", "pluralName": "Japanese Restaurants", "shortName": "Japanese", "icon": {"prefix": "https://ss3.4sqi.net/img/categories_v2/food/japanese_", "suffix": ".png"}, "primary": true}], "photos": {"count": 0, "groups": []}}, "referralId": "e-0-4bbf1e2c30c99c74319f5411-36"}, {"reasons": {"count": 0, "items": [{"summary": "This spot is popular", "type": "general", "reasonName": "globalInteractionReason"}]}, "venue": {"id": "4f6e2f86e4b08a0bbae41776", "name": "Semilla", "location": {"address": "54 rue de Seine", "lat": 48.854052490605056, "lng": 2.3369070136656305, "labeledLatLngs": [{"label": "display", "lat": 48.854052490605056, "lng": 2.3369070136656305}], "distance": 1106, "postalCode": "75006", "cc": "FR", "city": "Paris", "state": "\u00cele-de-France", "country": "France", "formattedAddress": ["54 rue de Seine", "75006 Paris", "France"]}, "categories": [{"id": "52e81612bcbc57f1066b79f9", "name": "Modern European Restaurant", "pluralName": "Modern European Restaurants", "shortName": "Modern European", "icon": {"prefix": "https://ss3.4sqi.net/img/categories_v2/food/default_", "suffix": ".png"}, "primary": true}], "photos": {"count": 0, "groups": []}}, "referralId": "e-0-4f6e2f86e4b08a0bbae41776-37"}, {"reasons": {"count": 0, "items": [{"summary": "This spot is popular", "type": "general", "reasonName": "globalInteractionReason"}]}, "venue": {"id": "501ab9cfe4b089ae3961a041", "name": "L'\u00celot", "location": {"address": "4 rue de la Corderie", "lat": 48.864666, "lng": 2.363317, "labeledLatLngs": [{"label": "display", "lat": 48.864666, "lng": 2.363317}], "distance": 1246, "postalCode": "75004", "cc": "FR", "city": "Paris", "state": "\u00cele-de-France", "country": "France", "formattedAddress": ["4 rue de la Corderie", "75004 Paris", "France"]}, "categories": [{"id": "4bf58dd8d48988d1ce941735", "name": "Seafood Restaurant", "pluralName": "Seafood Restaurants", "shortName": "Seafood", "icon": {"prefix": "https://ss3.4sqi.net/img/categories_v2/food/seafood_", "suffix": ".png"}, "primary": true}], "photos": {"count": 0, "groups": []}}, "referralId": "e-0-501ab9cfe4b089ae3961a041-38"}, {"reasons": {"count": 0, "items": [{"summary": "This spot is popular", "type": "general", "reasonName": "globalInteractionReason"}]}, "venue": {"id": "4adcda11f964a5200e3621e3", "name": "Cos\u00ed", "location": {"address": "54 rue de Seine", "lat": 48.85415830700497, "lng": 2.3369217126973187, "labeledLatLngs": [{"label": "display", "lat": 48.85415830700497, "lng": 2.3369217126973187}], "distance": 1102, "postalCode": "75006", "cc": "FR", "city": "Paris", "state": "\u00cele-de-France", "country": "France", "formattedAddress": ["54 rue de Seine", "75006 Paris", "France"]}, "categories": [{"id": "4bf58dd8d48988d1c5941735", "name": "Sandwich Place", "pluralName": "Sandwich Places", "shortName": "Sandwiches", "icon": {"prefix": "https://ss3.4sqi.net/img/categories_v2/food/deli_", "suffix": ".png"}, "primary": true}], "photos": {"count": 0, "groups": []}}, "referralId": "e-0-4adcda11f964a5200e3621e3-39"}, {"reasons": {"count": 0, "items": [{"summary": "This spot is popular", "type": "general", "reasonName": "globalInteractionReason"}]}, "venue": {"id": "551ab159498e0f0eb50a5a1f", "name": "Paris New York", "location": {"address": "1 rue Perr\u00e9e", "crossStreet": "rue de Picardie", "lat": 48.86384310987126, "lng": 2.3626613616943355, "labeledLatLngs": [{"label": "display", "lat": 48.86384310987126, "lng": 2.3626613616943355}], "distance": 1147, "postalCode": "75003", "cc": "FR", "city": "Paris", "state": "\u00cele-de-France", "country": "France", "formattedAddress": ["1 rue Perr\u00e9e (rue de Picardie)", "75003 Paris", "France"]}, "categories": [{"id": "4bf58dd8d48988d16c941735", "name": "Burger Joint", "pluralName": "Burger Joints", "shortName": "Burgers", "icon": {"prefix": "https://ss3.4sqi.net/img/categories_v2/food/burger_", "suffix": ".png"}, "primary": true}], "photos": {"count": 0, "groups": []}}, "referralId": "e-0-551ab159498e0f0eb50a5a1f-40"}, {"reasons": {"count": 0, "items": [{"summary": "This spot is popular", "type": "general", "reasonName": "globalInteractionReason"}]}, "venue": {"id": "54842e01498ee191fa3c80e8", "name": "Strada Caf\u00e9", "location": {"address": "24 rue Monge", "lat": 48.847037811343526, "lng": 2.351278439067274, "labeledLatLngs": [{"label": "display", "lat": 48.847037811343526, "lng": 2.351278439067274}], "distance": 1065, "postalCode": "75005", "cc": "FR", "city": "Paris", "state": "\u00cele-de-France", "country": "France", "formattedAddress": ["24 rue Monge", "75005 Paris", "France"]}, "categories": [{"id": "4bf58dd8d48988d16d941735", "name": "Caf\u00e9", "pluralName": "Caf\u00e9s", "shortName": "Caf\u00e9", "icon": {"prefix": "https://ss3.4sqi.net/img/categories_v2/food/cafe_", "suffix": ".png"}, "primary": true}], "photos": {"count": 0, "groups": []}}, "referralId": "e-0-54842e01498ee191fa3c80e8-41"}, {"reasons": {"count": 0, "items": [{"summary": "This spot is popular", "type": "general", "reasonName": "globalInteractionReason"}]}, "venue": {"id": "4b06dee2f964a520e3f122e3", "name": "Le Temps des Cerises", "location": {"address": "31 rue de la Cerisaie", "lat": 48.85255362794662, "lng": 2.364194654389621, "labeledLatLngs": [{"label": "display", "lat": 48.85255362794662, "lng": 2.364194654389621}], "distance": 1033, "postalCode": "75004", "cc": "FR", "city": "Paris", "state": "\u00cele-de-France", "country": "France", "formattedAddress": ["31 rue de la Cerisaie", "75004 Paris", "France"]}, "categories": [{"id": "4bf58dd8d48988d10c941735", "name": "French Restaurant", "pluralName": "French Restaurants", "shortName": "French", "icon": {"prefix": "https://ss3.4sqi.net/img/categories_v2/food/french_", "suffix": ".png"}, "primary": true}], "photos": {"count": 0, "groups": []}}, "referralId": "e-0-4b06dee2f964a520e3f122e3-42"}, {"reasons": {"count": 0, "items": [{"summary": "This spot is popular", "type": "general", "reasonName": "globalInteractionReason"}]}, "venue": {"id": "4d9af77db4fa3704e5f8900d", "name": "Nanashi", "location": {"address": "57 rue Charlot", "lat": 48.8637022130953, "lng": 2.363025139302343, "labeledLatLngs": [{"label": "display", "lat": 48.8637022130953, "lng": 2.363025139302343}], "distance": 1155, "postalCode": "75003", "cc": "FR", "city": "Paris", "state": "\u00cele-de-France", "country": "France", "formattedAddress": ["57 rue Charlot", "75003 Paris", "France"]}, "categories": [{"id": "4bf58dd8d48988d111941735", "name": "Japanese Restaurant", "pluralName": "Japanese Restaurants", "shortName": "Japanese", "icon": {"prefix": "https://ss3.4sqi.net/img/categories_v2/food/japanese_", "suffix": ".png"}, "primary": true}], "photos": {"count": 0, "groups": []}}, "referralId": "e-0-4d9af77db4fa3704e5f8900d-43"}, {"reasons": {"count": 0, "items": [{"summary": "This spot is popular", "type": "general", "reasonName": "globalInteractionReason"}]}, "venue": {"id": "53074404498ee6ccedbfc54d", "name": "Boot Caf\u00e9", "location": {"address": "19 rue du Pont aux Choux", "lat": 48.861289530249095, "lng": 2.3652917536188585, "labeledLatLngs": [{"label": "display", "lat": 48.861289530249095, "lng": 2.3652917536188585}], "distance": 1136, "postalCode": "75003", "cc": "FR", "city": "Paris", "state": "\u00cele-de-France", "country": "France", "formattedAddress": ["19 rue du Pont aux Choux", "75003 Paris", "France"]}, "categories": [{"id": "4bf58dd8d48988d16d941735", "name": "Caf\u00e9", "pluralName": "Caf\u00e9s", "shortName": "Caf\u00e9", "icon": {"prefix": "https://ss3.4sqi.net/img/categories_v2/food/cafe_", "suffix": ".png"}, "primary": true}], "photos": {"count": 0, "groups": []}}, "referralId": "e-0-53074404498ee6ccedbfc54d-44"}, {"reasons": {"count": 0, "items": [{"summary": "This spot is popular", "type": "general", "reasonName": "globalInteractionReason"}]}, "venue": {"id": "4c002cf6f61ea5937274eb13", "name": "Anahi", "location": {"address": "49 rue Volta", "crossStreet": "Rue du Vertbois", "lat": 48.86700227278861, "lng": 2.3582444160131217, "labeledLatLngs": [{"label": "display", "lat": 48.86700227278861, "lng": 2.3582444160131217}], "distance": 1257, "postalCode": "75003", "cc": "FR", "city": "Paris", "state": "\u00cele-de-France", "country": "France", "formattedAddress": ["49 rue Volta (Rue du Vertbois)", "75003 Paris", "France"]}, "categories": [{"id": "4bf58dd8d48988d107941735", "name": "Argentinian Restaurant", "pluralName": "Argentinian Restaurants", "shortName": "Argentinian", "icon": {"prefix": "https://ss3.4sqi.net/img/categories_v2/food/argentinian_", "suffix": ".png"}, "primary": true}], "photos": {"count": 0, "groups": []}}, "referralId": "e-0-4c002cf6f61ea5937274eb13-45"}, {"reasons": {"count": 0, "items": [{"summary": "This spot is popular", "type": "general", "reasonName": "globalInteractionReason"}]}, "venue": {"id": "4adcda14f964a5200f3721e3", "name": "Chez Janou", "location": {"address": "2 rue Roger Verlomme", "crossStreet": "Rue des Tournelles", "lat": 48.85664435397839, "lng": 2.36724340761729, "labeledLatLngs": [{"label": "display", "lat": 48.85664435397839, "lng": 2.36724340761729}], "distance": 1153, "postalCode": "75004", "cc": "FR", "city": "Paris", "state": "\u00cele-de-France", "country": "France", "formattedAddress": ["2 rue Roger Verlomme (Rue des Tournelles)", "75004 Paris", "France"]}, "categories": [{"id": "57558b36e4b065ecebd306d7", "name": "Proven\u00e7al Restaurant", "pluralName": "Proven\u00e7al Restaurants", "shortName": "Proven\u00e7al", "icon": {"prefix": "https://ss3.4sqi.net/img/categories_v2/food/french_", "suffix": ".png"}, "primary": true}], "photos": {"count": 0, "groups": []}}, "referralId": "e-0-4adcda14f964a5200f3721e3-46"}, {"reasons": {"count": 0, "items": [{"summary": "This spot is popular", "type": "general", "reasonName": "globalInteractionReason"}]}, "venue": {"id": "5474e08e498e26dc5e12ebb5", "name": "Les Amis des Messina", "location": {"address": "81 rue R\u00e9aumur", "lat": 48.867165717937475, "lng": 2.3484202823949536, "labeledLatLngs": [{"label": "display", "lat": 48.867165717937475, "lng": 2.3484202823949536}], "distance": 1196, "postalCode": "75002", "cc": "FR", "city": "Paris", "state": "\u00cele-de-France", "country": "France", "formattedAddress": ["81 rue R\u00e9aumur", "75002 Paris", "France"]}, "categories": [{"id": "4bf58dd8d48988d110941735", "name": "Italian Restaurant", "pluralName": "Italian Restaurants", "shortName": "Italian", "icon": {"prefix": "https://ss3.4sqi.net/img/categories_v2/food/italian_", "suffix": ".png"}, "primary": true}], "photos": {"count": 0, "groups": []}}, "referralId": "e-0-5474e08e498e26dc5e12ebb5-47"}, {"reasons": {"count": 0, "items": [{"summary": "This spot is popular", "type": "general", "reasonName": "globalInteractionReason"}]}, "venue": {"id": "5083046de4b01d45a22621c0", "name": "La Massara", "location": {"address": "70 rue de Turbigo", "lat": 48.866098081070305, "lng": 2.3595499992370605, "labeledLatLngs": [{"label": "display", "lat": 48.866098081070305, "lng": 2.3595499992370605}], "distance": 1209, "postalCode": "75003", "cc": "FR", "city": "Paris", "state": "\u00cele-de-France", "country": "France", "formattedAddress": ["70 rue de Turbigo", "75003 Paris", "France"]}, "categories": [{"id": "4bf58dd8d48988d110941735", "name": "Italian Restaurant", "pluralName": "Italian Restaurants", "shortName": "Italian", "icon": {"prefix": "https://ss3.4sqi.net/img/categories_v2/food/italian_", "suffix": ".png"}, "primary": true}], "photos": {"count": 0, "groups": []}, "venuePage": {"id": "44986821"}}, "referralId": "e-0-5083046de4b01d45a22621c0-48"}, {"reasons": {"count": 0, "items": [{"summary": "This spot is popular", "type": "general", "reasonName": "globalInteractionReason"}]}, "venue": {"id": "5006b402e4b052ccd4ab259f", "name": "Caf\u00e9 Ginger", "location": {"address": "9 rue Jacques C\u0153ur", "lat": 48.852887, "lng": 2.367354, "labeledLatLngs": [{"label": "display", "lat": 48.852887, "lng": 2.367354}], "distance": 1233, "postalCode": "75004", "cc": "FR", "neighborhood": "H\u00f4tel-de-Ville", "city": "Paris", "state": "\u00cele-de-France", "country": "France", "formattedAddress": ["9 rue Jacques C\u0153ur", "75004 Paris", "France"]}, "categories": [{"id": "4bf58dd8d48988d1d3941735", "name": "Vegetarian / Vegan Restaurant", "pluralName": "Vegetarian / Vegan Restaurants", "shortName": "Vegetarian / Vegan", "icon": {"prefix": "https://ss3.4sqi.net/img/categories_v2/food/vegetarian_", "suffix": ".png"}, "primary": true}], "photos": {"count": 0, "groups": []}}, "referralId": "e-0-5006b402e4b052ccd4ab259f-49"}]}]}}